[
	{
		"num": 0,
		"lat": 37.5892795,
		"lng": 127.0350285,
		"name": "박물관 앞 지하주차장",
		"campus": "인문계"
	},
	{
		"num": 1,
		"lat": 37.5899426,
		"lng": 127.0345859,
		"name": "경영본관과 박물관 사이\r\n",
		"campus": "인문계"
	},
	{
		"num": 2,
		"lat": 37.5903603,
		"lng": 127.0341051,
		"name": "중앙도서관\r\n",
		"campus": "인문계"
	},
	{
		"num": 3,
		"lat": 37.5908361,
		"lng": 127.0334962,
		"name": "법학관구관 앞\r\n",
		"campus": "인문계"
	},
	{
		"num": 4,
		"lat": 37.5911384,
		"lng": 127.0331331,
		"name": "CJ 법학관",
		"campus": "인문계"
	},
	{
		"num": 5,
		"lat": 37.5872123,
		"lng": 127.0322789,
		"name": "학생회관",
		"campus": "인문계"
	},
	{
		"num": 6,
		"lat": 37.5870242,
		"lng": 127.0314749,
		"name": "우당교양관",
		"campus": "인문계"
	},
	{
		"num": 7,
		"lat": 37.5894567,
		"lng": 127.0310501,
		"name": "인촌기념관",
		"campus": "인문계"
	},
	{
		"num": 8,
		"lat": 37.5877705,
		"lng": 127.0316046,
		"name": "우체국",
		"campus": "인문계"
	},
	{
		"num": 9,
		"lat": 37.5874477,
		"lng": 127.0305844,
		"name": "정경대학과 타이거 프라자 사이",
		"campus": "인문계"
	},
	{
		"num": 10,
		"lat": 37.5883916,
		"lng": 127.0322447,
		"name": "지하주차장(SK 미래관 뒷편)",
		"campus": "인문계"
	},
	{
		"num": 11,
		"lat": 37.5895903,
		"lng": 127.0336454,
		"name": "지하주차장(박물관 뒷편)",
		"campus": "인문계"
	},
	{
		"num": 12,
		"lat": 37.5849781,
		"lng": 127.0255147,
		"name": "아산이학관",
		"campus": "자연계"
	},
	{
		"num": 13,
		"lat": 37.5853418,
		"lng": 127.0263961,
		"name": "생명과학대학서관",
		"campus": "자연계"
	},
	{
		"num": 14,
		"lat": 37.5847456,
		"lng": 127.0264202,
		"name": "과학도서관",
		"campus": "자연계"
	},
	{
		"num": 15,
		"lat": 37.5841401,
		"lng": 127.0251123,
		"name": "공학관",
		"campus": "자연계"
	},
	{
		"num": 16,
		"lat": 37.5832737,
		"lng": 127.0262281,
		"name": "창의관",
		"campus": "자연게"
	},
	{
		"num": 17,
		"lat": 37.5827888,
		"lng": 127.0264716,
		"name": "창의관과 신공학관 사이",
		"campus": "자연계"
	},
	{
		"num": 18,
		"lat": 37.5825499,
		"lng": 127.0275209,
		"name": "애기능 학생회관",
		"campus": "자연계"
	},
	{
		"num": 19,
		"lat": 37.5835434,
		"lng": 127.0281194,
		"name": "이학관 별관",
		"campus": "자연계"
	},
	{
		"num": 20,
		"lat": 37.5848471,
		"lng": 127.0276135,
		"name": "애기능 생활관과 생명환경과학대학 신관 사이",
		"campus": "자연계"
	},
	{
		"num": 21,
		"lat": 37.5844805,
		"lng": 127.0252059,
		"name": "하나스퀘어 지하(아산이학관 맞은 편 방향)",
		"campus": "자연계"
	},
	{
		"num": 22,
		"lat": 37.5850783,
		"lng": 127.0264642,
		"name": "하나스퀘어 지하(생명과학관 맞은 편 방향)",
		"campus": "자연계"
	},
	{
		"num": 23,
		"lat": 37.5908204,
		"lng": 127.0260461,
		"name": "간호 대학",
		"campus": "녹지"
	},
	{
		"num": 24,
		"lat": 37.5909609,
		"lng": 127.0291205,
		"name": "프런티어관(기숙사)",
		"campus": "녹지"
	},
	{
		"num": 25,
		"lat": 37.5918461,
		"lng": 127.0259147,
		"name": "녹지운동장 옆 주차장",
		"campus": "녹지"
	}
]
